{"data": [
    {
        "region": "NY",
        "address": "630 3rd Ave",
        "status": "1",
        "name": "Burger, George - Burger George",
        "tel": "(212) 661-2727",
        "locality": "New York",
        "postcode": "10017",
        "factual_id": "a1b37767-63bb-43c2-8634-33f75039704a",
        "country": "us"
    },
    {
        "region": "NY",
        "fax": "(212) 269-9200",
        "status": "1",
        "website": "http://www.burgerburgerny.com",
        "tel": "(212) 269-9100",
        "neighborhood": {},
        "postcode": "10004",
        "category_labels": {},
        "category_ids": {},
        "country": "us",
        "category": "Food & Beverage > Restaurants",
        "address": "77 Pearl St",
        "name": "Burger Burger",
        "locality": "New York",
        "longitude": -74.01041952033175,
        "latitude": 40.70393978782247,
        "address_extended": "Frnt 6",
        "factual_id": "f93f2e6e-a12f-4ace-83fb-2b52056f93e8"
    },
    {
        "region": "NY",
        "status": "1",
        "tel": "(212) 283-5050",
        "neighborhood": {},
        "postcode": "10039",
        "category_labels": {},
        "category_ids": {},
        "country": "us",
        "category": "Food & Beverage > Restaurants > American",
        "address": "703 Lenox Ave",
        "name": "Jimbo's Burger",
        "locality": "New York",
        "longitude": -73.93751196341698,
        "latitude": 40.82067698062143,
        "factual_id": "420e722d-c1e2-4d2b-9618-737c86308943"
    },
    {
        "region": "NY",
        "website": "http://www.betterburgernyc.com/home.html",
        "status": "1",
        "tel": "(212) 989-6688",
        "neighborhood": {},
        "postcode": "10011",
        "category_labels": {},
        "category_ids": {},
        "country": "us",
        "category": "Food & Beverage > Restaurants",
        "address": "265 W 19th St",
        "name": "Chelsea Better Burger",
        "locality": "New York",
        "longitude": -73.99919827272727,
        "latitude": 40.742467727272725,
        "factual_id": "6387194f-6197-45d7-a265-99a4561f6cd9"
    },
    {
        "region": "NY",
        "website": "http://gomobo.mobi",
        "status": "1",
        "tel": "(212) 260-0895",
        "neighborhood": {},
        "postcode": "10012",
        "category_labels": {},
        "category_ids": {},
        "country": "us",
        "category": "Food & Beverage > Restaurants",
        "address": "84 Wooster St",
        "name": "Foos Burgers",
        "locality": "New York",
        "longitude": -74.00120266666667,
        "latitude": 40.723894333333334,
        "factual_id": "71de5480-bef8-012e-5614-003048cad9da"
    },
    {
        "region": "NY",
        "website": "http://www.quality-burger.com",
        "status": "1",
        "tel": "(212) 786-0700",
        "neighborhood": {},
        "postcode": "10281",
        "category_labels": {},
        "category_ids": {},
        "country": "us",
        "category": "Food & Beverage > Restaurants",
        "address": "225 Liberty St",
        "name": "Quality Burger",
        "locality": "New York",
        "longitude": -74.01536682875,
        "latitude": 40.71111646375,
        "factual_id": "71d99860-bef8-012e-5614-003048cad9da"
    },
    {
        "region": "NY",
        "status": "1",
        "tel": "(212) 242-9830",
        "neighborhood": {},
        "postcode": "10011",
        "category_labels": {},
        "category_ids": {},
        "country": "us",
        "category": "Food & Beverage > Restaurants > Burgers",
        "address": "523 Avenue Of The Americas",
        "name": "Burger King",
        "locality": "New York",
        "longitude": -73.99717150000001,
        "latitude": 40.737263999999996,
        "factual_id": "1a31f11f-fc41-4637-b9ad-67b73e853279"
    },
    {
        "region": "NY",
        "status": "1",
        "tel": "(212) 704-6000",
        "neighborhood": {},
        "postcode": "10174",
        "category_labels": {},
        "category_ids": {},
        "country": "us",
        "category": "Legal & Financial > Lawyers & Legal Services",
        "address": "405 Lexington Ave",
        "name": "Burger Carol F Attorney",
        "locality": "New York",
        "longitude": -73.9757,
        "latitude": 40.751499,
        "factual_id": "644acc72-de3b-481b-a775-0170de95e688"
    },
    {
        "region": "NY",
        "website": "http://www.orderbluenine.com",
        "status": "1",
        "tel": "(212) 988-8171",
        "neighborhood": {},
        "postcode": "10021",
        "category_labels": {},
        "category_ids": {},
        "country": "us",
        "category": "Food & Beverage > Restaurants",
        "address": "1415 2nd Ave",
        "name": "Blue 9 Burger",
        "locality": "New York",
        "longitude": -73.95762161606721,
        "latitude": 40.769978294592015,
        "factual_id": "40285dcb-8f10-4f6a-a98e-9c3368ecfdb5"
    },
    {
        "region": "NY",
        "website": "http://www.bk.com",
        "status": "1",
        "tel": "(212) 483-1051",
        "neighborhood": {},
        "chain_id": "ab4a9b10-d68a-012e-5619-003048cad9da",
        "postcode": "10004",
        "category_labels": {},
        "category_ids": {},
        "country": "us",
        "chain_name": "Burger King",
        "category": "Food & Beverage > Restaurants > Burgers",
        "address": "16 Beaver St",
        "name": "Burger King",
        "locality": "New York",
        "longitude": -74.01243849087057,
        "latitude": 40.70491970545492,
        "factual_id": "1b060c96-0205-4f82-b397-2c890d370a34",
        "address_extended": "Frnt A"
    },
    {
        "region": "NY",
        "website": "http://www.mmbmlaw.com",
        "status": "1",
        "tel": "(212) 608-7037",
        "neighborhood": {},
        "postcode": "10024",
        "category_labels": {},
        "category_ids": {},
        "country": "us",
        "category": "Legal & Financial > Lawyers & Legal Services",
        "address": "46 W 83rd St",
        "name": "Meites Mulder Burger and Mollica",
        "locality": "New York",
        "longitude": -73.972275,
        "latitude": 40.78390316666667,
        "factual_id": "0f6a2b8e-1657-4e4a-9b0c-8b4ec62f7c78"
    },
    {
        "region": "NY",
        "website": "http://www.stmarksburger.com",
        "status": "1",
        "tel": "(212) 677-3132",
        "neighborhood": {},
        "postcode": "10003",
        "category_labels": {},
        "category_ids": {},
        "country": "us",
        "category": "Food & Beverage > Restaurants",
        "address": "33 Saint Marks Pl",
        "name": "Mark Burger",
        "locality": "New York",
        "longitude": -73.98791338333334,
        "latitude": 40.72887346666667,
        "factual_id": "60ed2444-56b4-4844-950d-687176ce9ba7"
    },
    {
        "region": "NY",
        "website": "http://www.burgerking.com",
        "status": "1",
        "tel": "(212) 571-4522",
        "neighborhood": {},
        "chain_id": "ab4a9b10-d68a-012e-5619-003048cad9da",
        "postcode": "10006",
        "category_labels": {},
        "category_ids": {},
        "country": "us",
        "chain_name": "Burger King",
        "category": "Food & Beverage > Restaurants > Burgers",
        "address": "106 Liberty St",
        "name": "Burger King",
        "locality": "New York",
        "longitude": -74.01184543916278,
        "latitude": 40.709702729658986,
        "factual_id": "28fa99ad-757b-496a-a600-40ac737b73bc",
        "address_extended": "Frnt 1"
    },
    {
        "region": "NY",
        "website": "http://www.burgerking.com",
        "status": "1",
        "tel": "(212) 219-2516",
        "neighborhood": {},
        "postcode": "10013",
        "category_labels": {},
        "category_ids": {},
        "country": "us",
        "category": "Food & Beverage > Restaurants",
        "address": "273 Canal St",
        "name": "Creative Burgers Co.",
        "locality": "New York",
        "longitude": -74.00130114444444,
        "latitude": 40.71910651111112,
        "factual_id": "446855ec-3760-43b4-85b1-14e092ea1ab2"
    },
    {
        "region": "NY",
        "website": "http://www.5napkinburger.com",
        "status": "1",
        "tel": "(212) 228-5500",
        "neighborhood": {},
        "postcode": "10003",
        "category_labels": {},
        "category_ids": {},
        "country": "us",
        "category": "Food & Beverage > Restaurants",
        "address": "150 E 14th St",
        "name": "5 Napkin Burger",
        "locality": "New York",
        "longitude": -73.98784554999999,
        "latitude": 40.73345755,
        "factual_id": "a9b0f411-3bce-4b74-affe-7d60fe6b27cb"
    },
    {
        "region": "NY",
        "fax": "(212) 564-4731",
        "website": "http://www.bk.com",
        "status": "1",
        "tel": "(212) 643-1114",
        "neighborhood": {},
        "chain_id": "ab4a9b10-d68a-012e-5619-003048cad9da",
        "postcode": "10001",
        "category_labels": {},
        "category_ids": {},
        "country": "us",
        "chain_name": "Burger King",
        "category": "Food & Beverage > Restaurants > Burgers",
        "address": "330 5th Ave",
        "name": "Burger King",
        "locality": "New York",
        "longitude": -73.98522912132529,
        "latitude": 40.7475811701067,
        "factual_id": "5697b66b-6908-4209-9712-9b67d1414e6e",
        "address_extended": "Frnt 1"
    },
    {
        "region": "NY",
        "website": "http://www.bk.com/en/us/restaurant-locator/restaurant14222/index.html",
        "status": "1",
        "tel": "(212) 260-1478",
        "chain_id": "ab4a9b10-d68a-012e-5619-003048cad9da",
        "postcode": "10002",
        "category_labels": {},
        "category_ids": {},
        "country": "us",
        "chain_name": "Burger King",
        "category": "Food & Beverage > Restaurants > Burgers",
        "address": "146 Delancey St",
        "name": "Burger King",
        "locality": "New York",
        "factual_id": "2e77363d-2de2-4207-ad23-a10e1260ac4d"
    },
    {
        "region": "NY",
        "status": "1",
        "neighborhood": {},
        "postcode": "10039",
        "category_labels": {},
        "category_ids": {},
        "country": "us",
        "category": "Food & Beverage > Restaurants",
        "address": "274 W 145th St",
        "name": "Jumbos Burgers",
        "locality": "New York",
        "longitude": -73.941177,
        "latitude": 40.822369,
        "factual_id": "2b6c5df0-0355-012f-b33e-003048cacd48"
    },
    {
        "region": "NY",
        "status": "1",
        "tel": "(212) 844-1808",
        "postcode": "10003",
        "category_labels": {},
        "category_ids": {},
        "country": "us",
        "category": "Health & Medicine",
        "address": "350 E 17th St",
        "name": "Dr Alfred P. Burger, MD",
        "locality": "New York",
        "longitude": -73.982094,
        "latitude": 40.733643,
        "factual_id": "21dffaed-5e9b-4ba8-8366-9ecf576b577d"
    },
    {
        "region": "NY",
        "address": "2 E 52nd St",
        "status": "1",
        "website": "http://www.zipburger.com",
        "name": "Zip Burger",
        "tel": "(212) 308-1308",
        "locality": "New York",
        "longitude": -73.9674,
        "latitude": 40.7559,
        "postcode": "10022",
        "factual_id": "f6eaacdd-ea97-4065-b4a9-04ff28f7ea35",
        "country": "us"
    }
]}