{"data": [
    {
        "region": "NY",
        "website": "http://starbucks.com",
        "status": "1",
        "tel": "(212) 751-2937",
        "neighborhood": {},
        "$distance": 137.02032,
        "postcode": "10017",
        "category_labels": {},
        "category_ids": {},
        "country": "us",
        "category": "Food & Beverage > Cafes, Coffee Houses & Tea Houses",
        "address": "280 Park Ave",
        "name": "Starbucks",
        "locality": "New York",
        "longitude": -73.98213,
        "latitude": 40.745812,
        "factual_id": "3052af40-9ddb-4791-9ba4-3cd1c4341ce0",
        "address_extended": "Frnt A"
    },
    {
        "region": "NY",
        "website": "http://www.starbucks.com",
        "status": "1",
        "tel": "(212) 725-0637",
        "neighborhood": {},
        "$distance": 139.59851,
        "chain_id": "ab4c54c0-d68a-012e-5619-003048cad9da",
        "postcode": "10016",
        "category_labels": {},
        "category_ids": {},
        "country": "us",
        "chain_name": "Starbucks",
        "category": "Food & Beverage > Cafes, Coffee Houses & Tea Houses",
        "address": "424 Park Ave S",
        "name": "Starbucks",
        "locality": "New York",
        "longitude": -73.98372059171724,
        "latitude": 40.74414137426347,
        "factual_id": "2087f506-fcf5-4c1d-b4ca-13bb2eac0b10",
        "address_extended": "Frnt 1"
    },
    {
        "region": "NY",
        "website": "http://www.starbucks.com",
        "status": "1",
        "tel": "(212) 725-9469",
        "neighborhood": {},
        "$distance": 232.43416,
        "chain_id": "ab4c54c0-d68a-012e-5619-003048cad9da",
        "postcode": "10016",
        "category_labels": {},
        "category_ids": {},
        "country": "us",
        "chain_name": "Starbucks",
        "category": "Food & Beverage > Cafes, Coffee Houses & Tea Houses",
        "address": "3 Park Ave",
        "name": "Starbucks",
        "locality": "New York",
        "longitude": -73.98145590380334,
        "latitude": 40.74665240503116,
        "address_extended": "Frnt 1",
        "factual_id": "d9f46e39-ebc4-45a1-9942-a129bb7bad15"
    },
    {
        "region": "NY",
        "website": "http://www.starbucks.com",
        "status": "1",
        "tel": "(212) 779-1557",
        "neighborhood": {},
        "$distance": 275.6074,
        "chain_id": "ab4c54c0-d68a-012e-5619-003048cad9da",
        "postcode": "10016",
        "category_labels": {},
        "category_ids": {},
        "country": "us",
        "chain_name": "Starbucks",
        "category": "Food & Beverage > Cafes, Coffee Houses & Tea Houses",
        "email": "contact@visit5thavenue.com",
        "address": "261 5th Ave",
        "name": "Starbucks",
        "locality": "New York",
        "longitude": -73.98690613083872,
        "latitude": 40.745081610089635,
        "factual_id": "547962a5-7ac0-4634-8422-725073eb9302",
        "address_extended": "Frnt C"
    },
    {
        "region": "NY",
        "website": "http://www.starbucks.com",
        "status": "1",
        "tel": "(212) 613-1280",
        "neighborhood": {},
        "$distance": 283.6201,
        "chain_id": "ab4c54c0-d68a-012e-5619-003048cad9da",
        "postcode": "10001",
        "po_box": "P.O. Box 180195",
        "category_labels": {},
        "country": "us",
        "category_ids": {},
        "chain_name": "Starbucks",
        "category": "Food & Beverage > Cafes, Coffee Houses & Tea Houses",
        "address": "330 5th Ave",
        "name": "Starbucks",
        "locality": "New York",
        "longitude": -73.98520360979289,
        "latitude": 40.74766315670623,
        "address_extended": "Fl 2",
        "factual_id": "c0697481-efcf-4fc1-8edd-ed9afd700d9c"
    },
    {
        "region": "NY",
        "status": "1",
        "neighborhood": {},
        "$distance": 284.35117,
        "postcode": "10001",
        "category_labels": {},
        "category_ids": {},
        "country": "us",
        "category": "Business & Professional Services",
        "address": "330 5th Ave",
        "name": "Starbucks - Home Office",
        "locality": "New York",
        "longitude": -73.9851511,
        "latitude": 40.74769055555556,
        "factual_id": "321c1c93-60a6-4279-aeb4-161a358842be"
    },
    {
        "region": "NY",
        "website": "http://www.starbucks.com",
        "status": "1",
        "tel": "(212) 684-6873",
        "neighborhood": {},
        "$distance": 389.40988,
        "chain_id": "ab4c54c0-d68a-012e-5619-003048cad9da",
        "postcode": "10016",
        "category_labels": {},
        "category_ids": {},
        "country": "us",
        "chain_name": "Starbucks",
        "category": "Food & Beverage > Cafes, Coffee Houses & Tea Houses",
        "address": "200 Madison Ave",
        "name": "Starbucks",
        "locality": "New York",
        "longitude": -73.98251777357255,
        "latitude": 40.74878925203723,
        "address_extended": "Bsmt 1",
        "factual_id": "b99bc664-84e6-46d0-97aa-3f828ce5f716"
    },
    {
        "region": "NY",
        "website": "http://www.starbucks.com",
        "status": "1",
        "tel": "(212) 213-5363",
        "neighborhood": {},
        "$distance": 412.50436,
        "chain_id": "ab4c54c0-d68a-012e-5619-003048cad9da",
        "postcode": "10016",
        "category_labels": {},
        "category_ids": {},
        "country": "us",
        "chain_name": "Starbucks",
        "category": "Food & Beverage > Cafes, Coffee Houses & Tea Houses",
        "address": "373 5th Ave",
        "name": "Starbucks",
        "locality": "New York",
        "longitude": -73.98379968237833,
        "latitude": 40.74910424787293,
        "factual_id": "35776527-67a0-4078-9748-2c5e5bd8c18f"
    },
    {
        "region": "NY",
        "status": "1",
        "tel": "(212) 213-6519",
        "$distance": 480.84103,
        "postcode": "10001",
        "category_labels": {},
        "category_ids": {},
        "country": "us",
        "category": "Food & Beverage > Cafes, Coffee Houses & Tea Houses",
        "address": "1140 Broadway",
        "name": "Starbucks",
        "locality": "New York",
        "longitude": -73.988998,
        "latitude": 40.743863000000005,
        "factual_id": "ab2ad410-7259-438c-b721-e80e2ac1b26c"
    },
    {
        "region": "NY",
        "status": "1",
        "tel": "(212) 750-7140",
        "$distance": 533.80206,
        "postcode": "10016",
        "category_labels": {},
        "category_ids": {},
        "country": "us",
        "category": "Food & Beverage > Cafes, Coffee Houses & Tea Houses",
        "address": "55 Park Ave",
        "name": "Starbucks",
        "locality": "New York",
        "longitude": -73.979825,
        "latitude": 40.749217,
        "factual_id": "757c57c0-1e18-012f-0643-0030487f54d8"
    },
    {
        "region": "NY",
        "status": "1",
        "website": "http://www.starbucks.com",
        "tel": "(212) 629-6512",
        "neighborhood": {},
        "$distance": 556.4711,
        "chain_id": "ab4c54c0-d68a-012e-5619-003048cad9da",
        "postcode": "10001",
        "category_labels": {},
        "category_ids": {},
        "country": "us",
        "chain_name": "Starbucks",
        "category": "Food & Beverage > Cafes, Coffee Houses & Tea Houses",
        "address": "875 Avenue Of The Americas",
        "name": "Starbucks",
        "locality": "New York",
        "longitude": -73.98925340117016,
        "latitude": 40.74805945492247,
        "factual_id": "7b89fb48-6c4a-4f00-823b-dfe85528afef"
    },
    {
        "region": "NY",
        "status": "1",
        "tel": "(212) 481-1856",
        "neighborhood": {},
        "$distance": 574.2173,
        "postcode": "10010",
        "category_labels": {},
        "category_ids": {},
        "country": "us",
        "category": "Food & Beverage > Cafes, Coffee Houses & Tea Houses",
        "address": "55 W 26th St",
        "name": "Starbucks",
        "locality": "New York",
        "longitude": -73.990363616,
        "latitude": 40.74445749,
        "factual_id": "d1a1739c-4dd1-407f-a388-c6c8ea42ab80"
    },
    {
        "region": "NY",
        "address": "585 2nd Ave",
        "status": "1",
        "name": "Starbucks/32nd and 2nd 831",
        "neighborhood": {},
        "locality": "New York",
        "longitude": -73.97683,
        "latitude": 40.74355,
        "$distance": 610.98663,
        "postcode": "10016",
        "factual_id": "7a127e5d-26a5-4e4c-b81b-6d167056a6a1",
        "country": "us"
    },
    {
        "region": "NY",
        "website": "http://starbucks.com",
        "status": "1",
        "tel": "(212) 684-1299",
        "neighborhood": {},
        "$distance": 611.3889,
        "chain_id": "ab4c54c0-d68a-012e-5619-003048cad9da",
        "postcode": "10016",
        "category_labels": {},
        "category_ids": {},
        "country": "us",
        "chain_name": "Starbucks",
        "category": "Food & Beverage > Cafes, Coffee Houses & Tea Houses",
        "address": "585 2nd Ave",
        "name": "Starbucks",
        "locality": "New York",
        "longitude": -73.97681832588215,
        "latitude": 40.74356409786682,
        "factual_id": "2d12f5fa-92ee-4ca1-a5fd-e9237b5f5fa9"
    },
    {
        "region": "NY",
        "website": "http://www.starbucks.com",
        "status": "1",
        "tel": "(646) 336-6583",
        "neighborhood": {},
        "$distance": 615.76556,
        "chain_id": "ab4c54c0-d68a-012e-5619-003048cad9da",
        "postcode": "10010",
        "category_labels": {},
        "category_ids": {},
        "country": "us",
        "chain_name": "Starbucks",
        "category": "Food & Beverage > Cafes, Coffee Houses & Tea Houses",
        "address": "4 W 21st St",
        "name": "Starbucks",
        "locality": "New York",
        "longitude": -73.988759,
        "latitude": 40.74142766666667,
        "factual_id": "3499f23a-b254-43be-b969-267a2368d9e0",
        "address_extended": "Frnt 1"
    },
    {
        "region": "NY",
        "website": "http://www.starbucks.com",
        "status": "1",
        "tel": "(212) 481-1856",
        "neighborhood": {},
        "$distance": 626.98315,
        "chain_id": "ab4c54c0-d68a-012e-5619-003048cad9da",
        "postcode": "10001",
        "category_labels": {},
        "category_ids": {},
        "country": "us",
        "chain_name": "Starbucks",
        "category": "Food & Beverage > Cafes, Coffee Houses & Tea Houses",
        "address": "776 Avenue Of The Americas",
        "name": "Starbucks",
        "locality": "New York",
        "longitude": -73.99108006679029,
        "latitude": 40.74494889855531,
        "address_extended": "Frnt 1",
        "factual_id": "cdc18307-16d6-4f6d-a61c-38446ad1d7f9"
    },
    {
        "region": "NY",
        "website": "http://www.starbucks.com",
        "status": "1",
        "tel": "(212) 475-9025",
        "neighborhood": {},
        "$distance": 639.5355,
        "chain_id": "ab4c54c0-d68a-012e-5619-003048cad9da",
        "postcode": "10010",
        "category_labels": {},
        "category_ids": {},
        "country": "us",
        "chain_name": "Starbucks",
        "category": "Food & Beverage > Cafes, Coffee Houses & Tea Houses",
        "email": "sarah@styleitonline.com",
        "address": "304 Park Ave S",
        "name": "Starbucks",
        "locality": "New York",
        "longitude": -73.98684713639271,
        "latitude": 40.7401756350794,
        "factual_id": "48761d00-8d38-4df3-bbf4-61a162af5e97"
    },
    {
        "region": "NY",
        "status": "1",
        "tel": "(718) 244-6061",
        "$distance": 679.5879,
        "postcode": "10016",
        "category_labels": {},
        "category_ids": {},
        "country": "us",
        "category": "Food & Beverage > Cafes, Coffee Houses & Tea Houses",
        "address": "10 E 39th St",
        "name": "Starbucks",
        "locality": "New York",
        "longitude": -73.981636,
        "latitude": 40.751312,
        "factual_id": "d14f6054-ce2f-4ae3-a689-f39d2ecb83d2"
    },
    {
        "region": "NY",
        "status": "1",
        "tel": "(212) 695-2915",
        "$distance": 680.66266,
        "postcode": "10018",
        "category_labels": {},
        "category_ids": {},
        "country": "us",
        "category": "Food & Beverage > Cafes, Coffee Houses & Tea Houses",
        "address": "977 Avenue Of The Americas",
        "name": "Starbucks",
        "locality": "New York",
        "longitude": -73.98692249999999,
        "latitude": 40.7509965,
        "factual_id": "c5d42685-410e-4cfe-bb56-e4a4fc23ae7e"
    },
    {
        "region": "NY",
        "website": "http://www.starbucks.com",
        "status": "1",
        "tel": "(212) 661-5489",
        "neighborhood": {},
        "$distance": 696.62506,
        "chain_id": "ab4c54c0-d68a-012e-5619-003048cad9da",
        "postcode": "10016",
        "category_labels": {},
        "category_ids": {},
        "country": "us",
        "chain_name": "Starbucks",
        "category": "Food & Beverage > Cafes, Coffee Houses & Tea Houses",
        "address": "90 Park Ave",
        "name": "Starbucks",
        "locality": "New York",
        "longitude": -73.97905363118889,
        "latitude": 40.750598438558974,
        "factual_id": "20b15e5b-ca43-4087-9876-7644ca5a2365",
        "address_extended": "Lbby 1"
    }
]}